{
  "results": [
    {
        "id": 0,
        "name": "San Tan Brewing Company",
        "address": "8 S San Marcos Pl, Chandler, AZ 85225",
        "phone": "4809178700",
        "website": "https://santanbrewing",
        "openedOn": "03/27/2005",
        "longitude": -111.843174,
        "latitude": 33.3031139,
        "parentCategory": "Restaurants",
        "subCategory": "Restaurants & Eating Places",
        "isActive": false
    },
    {
        "id": 1,
        "name": "Hangar Caf√©",
        "address": "1725 E Ryan Rd, Chandler, AZ 85286",
        "phone": "4807921939",
        "website": "hangarcafe.com",
        "openedOn": "11/16/1999",
        "longitude": -111.811713,
        "latitude": 33.2726771,
        "parentCategory": "Restaurants",
        "subCategory": "Restaurants & Eating Places",
        "isActive": false
    },
    {
        "id": 2,
        "name": "Kohl's South Chandler",
        "address": "1430 S Arizona Ave, Chandler, AZ 85286",
        "phone": "4807825865",
        "website": "kohls.com",
        "openedOn": "09/15/2017",
        "longitude": -111.8435747,
        "latitude": 33.2857077,
        "parentCategory": "Retail",
        "subCategory": "Department Stores",
        "isActive": false
    },
    {
        "id": 3,
        "name": "Mattress Firm Clearance",
        "address": "1400 S Arizona Ave, Chandler, AZ 85286",
        "phone": "4808999847",
        "website": "mattressfirm.com",
        "openedOn": "01/06/2017",
        "longitude": -111.8415554,
        "latitude": 33.2840653,
        "parentCategory": "Retail",
        "subCategory": "Furniture & Furnishings",
        "isActive": false
    },
    {
        "id": 4,
        "name": "Starbucks",
        "address": "1395 S Arizona Ave #1, Chandler, AZ 85286",
        "phone": "4801234567",
        "website": "starbucks.com",
        "openedOn": "6/16/2009",
        "longitude": -111.8409432,
        "latitude": 33.2844938,
        "parentCategory": "Restaurants",
        "subCategory": "Restaurants & Eating Places",
        "isActive": false
    },
    {
        "id": 5,
        "name": "Walmart Supercenter",
        "address": "1175 S Arizona Ave, Chandler, AZ 85286",
        "phone": "4801234567",
        "website": "walmart.com",
        "openedOn": "11/10/2007",
        "longitude": -111.838011,
        "latitude": 33.289278,
        "parentCategory": "Retail",
        "subCategory": "Department Stores",
        "isActive": false
    },
    {
        "id": 6,
        "name": "Goodwill",
        "address": "1095 S Arizona Ave, Chandler, AZ 85286",
        "phone": "4801234567",
        "website": "goodwill.com",
        "openedOn": "08/24/1981",
        "longitude": -111.8515923,
        "latitude": 33.280595,
        "parentCategory": "Retail",
        "subCategory": "Used Merchandise",
        "isActive": false
    },
    {
        "id": 7,
        "name": "Nando's Mexican Cafe",
        "address": "1890 W Germann Rd, Chandler, AZ 85286",
        "phone": "4801234567",
        "website": "nandos.com",
        "openedOn": "04/13/1980",
        "longitude": -111.8559879,
        "latitude": 33.2764867,
        "parentCategory": "Restaurants",
        "subCategory": "Restaurants & Eating Places",
        "isActive": false
    },
    {
        "id": 8,
        "name": "Cold Beers & Cheeseburgers",
        "address": "1980 W Germann Rd, Chandler, AZ 85286",
        "phone": "4801234567",
        "website": "coldbeers.com",
        "openedOn": "03/16/2016",
        "longitude": -111.8578203,
        "latitude": 33.2802384,
        "parentCategory": "Restaurants",
        "subCategory": "Restaurants & Eating Places",
        "isActive": false
    },
    {
        "id": 9,
        "name": "Albertsons",
        "address": "3145 S Alma School Rd, Chandler, AZ 85248 ",
        "phone": "4801234567",
        "website": "albertsons.com",
        "openedOn": "07/04/1991",
        "longitude": -111.8591,
        "latitude": 33.2668643,
        "parentCategory": "Retail",
        "subCategory": "Grocery & Convenience Stores",
        "isActive": false
    }
  ]
}